[
  {
    "category": "체육시설",
    "address": "서울특별시 광진구 능동로 120",
    "longitude": 127.078199,
    "id": "KU스포츠광장",
    "places": {},
    "parentId": "건국대학교",
    "inCampus": true,
    "latitude": 37.544361,
    "name": "KU스포츠광장"
  },
  {
    "category": "랜드마크",
    "address": "서울시 광진구 화양동 1",
    "longitude": 127.076423,
    "id": "건대항쟁기립상",
    "places": {},
    "inCampus": true,
    "latitude": 37.54382,
    "name": "건대항쟁기립상"
  },
  {
    "category": "건축대학",
    "address": "서울특별시 광진구 능동로 120",
    "longitude": 127.0783744,
    "id": "건축관",
    "number": 17,
    "places": {},
    "inCampus": true,
    "latitude": 37.54369178,
    "name": "건축관"
  },
  {
    "category": "경영대학",
    "address": "서울특별시 광진구 능동로 120",
    "longitude": 127.076112,
    "id": "경영관",
    "number": 2,
    "parentId": "건국대학교",
    "inCampus": true,
    "latitude": 37.54429,
    "places": {},
    "name": "경영관"
  },
  {
    "category": "공과대학",
    "address": "서울특별시 광진구 능동로 120",
    "longitude": 127.079365,
    "id": "공대별관",
    "number": 21,
    "parentId": "공학관",
    "inCampus": true,
    "latitude": 37.541594,
    "places": {},
    "name": "공대별관"
  },
  {
    "category": "예술디자인대학",
    "address": "서울특별시 광진구 능동로 120",
    "longitude": 127.081039,
    "id": "공예관",
    "places": {},
    "parentId": "건국대학교",
    "inCampus": true,
    "latitude": 37.542145,
    "name": "공예관"
  },
  {
    "category": "공과대학",
    "address": "서울특별시 광진구 능동로 120",
    "longitude": 127.079427,
    "id": "공학관A동",
    "number": 21,
    "parentId": "공학관",
    "inCampus": true,
    "latitude": 37.53899,
    "places": {},
    "name": "공학관 A동"
  },
  {
    "category": "공과대학",
    "address": "서울특별시 광진구 능동로 120",
    "longitude": 127.079625,
    "id": "공학관B동",
    "number": 21,
    "parentId": "공학관",
    "inCampus": true,
    "latitude": 37.542025,
    "places": {},
    "name": "공학관 B동"
  },
  {
    "category": "공과대학",
    "address": "서울특별시 광진구 능동로 120",
    "longitude": 127.079535,
    "id": "공학관C동",
    "number": 21,
    "parentId": "공학관",
    "inCampus": true,
    "latitude": 37.54118,
    "places": {},
    "name": "공학관 C동"
  },
  {
    "category": "이과대학",
    "address": "서울특별시 광진구 능동로 120",
    "longitude": 127.080604,
    "id": "과학관",
    "number": 23,
    "places": {},
    "inCampus": true,
    "latitude": 37.54158,
    "name": "과학관"
  },
  {
    "category": "사범대학",
    "address": "서울특별시 광진구 능동로 120",
    "longitude": 127.074111,
    "id": "교육과학관",
    "number": 4,
    "parentId": "건국대학교",
    "inCampus": true,
    "latitude": 37.544046,
    "places": {},
    "name": "교육과학관"
  },
  {
    "category": "기숙사",
    "address": "서울특별시 광진구 능동로 120",
    "longitude": 127.07731,
    "id": "국제학사",
    "number": 25,
    "parentId": "건국대학교",
    "inCampus": true,
    "latitude": 37.539819,
    "places": {},
    "name": "국제학사"
  },
  {
    "category": "극장",
    "address": "서울특별시 광진구 화양동 능동로 120",
    "longitude": 127.077815,
    "id": "노천극장",
    "places": {},
    "parentId": "제2학생회관",
    "inCampus": true,
    "latitude": 37.541501,
    "name": "노천극장"
  },
  {
    "category": "동물생명과학",
    "address": "서울특별시 광진구 능동로 120",
    "longitude": 127.074379,
    "id": "동물생명과학관",
    "number": 12,
    "parentId": "건국대학교",
    "inCampus": true,
    "latitude": 37.540327,
    "places": {
      "카페": [
        "동생대레스티오"
      ]
    },
    "name": "동물생명과학관"
  },
  {
    "category": "건국대학교",
    "address": "서울특별시 광진구 능동로 120",
    "longitude": 127.07558,
    "id": "박물관",
    "number": 7,
    "iconUrl": "area.museum.light",
    "inCampus": true,
    "latitude": 37.54236,
    "places": {},
    "name": "박물관"
  },
  {
    "category": "법학전문대학원",
    "address": "서울특별시 광진구 능동로 120",
    "longitude": 127.074831,
    "id": "법학관",
    "number": 8,
    "places": {},
    "inCampus": true,
    "latitude": 37.54172,
    "name": "법학관 (종강)"
  },
  {
    "category": "",
    "address": "서울특별시 광진구 능동로 120",
    "longitude": 127.07318,
    "id": "산학협동관",
    "number": 14,
    "parentId": "건국대학교",
    "inCampus": true,
    "latitude": 37.539673,
    "places": {},
    "name": "산학협동관"
  },
  {
    "category": "건국대학교",
    "address": "서울특별시 광진구 능동로 120",
    "longitude": 127.07382,
    "id": "상허기념도서관",
    "number": 9,
    "iconUrl": "area.library.light",
    "inCampus": true,
    "latitude": 37.54209,
    "places": {
      "휴게실": [
        "상허쉼터"
      ],
      "식당": [
        "상허마루"
      ],
      "카페": [
        "도서관레스티오"
      ]
    },
    "name": "상허기념도서관"
  },
  {
    "category": "",
    "address": "서울특별시 광진구 능동로 120",
    "longitude": 127.075273,
    "id": "상허연구관",
    "number": 3,
    "parentId": "건국대학교",
    "inCampus": true,
    "latitude": 37.543986,
    "places": {},
    "name": "상허연구관"
  },
  {
    "category": "랜드마크",
    "address": "서울시 광진구 화양동 1",
    "longitude": 127.07348,
    "id": "상허유석창박사동상",
    "places": {},
    "inCampus": true,
    "latitude": 37.541369,
    "name": "상허 유석창 박사 동상"
  },
  {
    "category": "",
    "address": "서울특별시 광진구 능동로 120",
    "longitude": 127.077467,
    "id": "새천년관",
    "number": 16,
    "iconUrl": "area.newmilli.light",
    "inCampus": true,
    "latitude": 37.543583,
    "parentId": "건국대학교",
    "places": {},
    "name": "새천년관"
  },
  {
    "category": "생명과학",
    "address": "서울특별시 광진구 능동로 120",
    "longitude": 127.074463,
    "id": "생명과학관",
    "number": 11,
    "parentId": "건국대학교",
    "inCampus": true,
    "latitude": 37.541054,
    "places": {},
    "name": "생명과학관"
  },
  {
    "category": "수의과대학",
    "address": "서울특별시 광진구 능동로 120",
    "longitude": 127.074725,
    "id": "수의학관",
    "number": 15,
    "parentId": "건국대학교",
    "inCampus": true,
    "latitude": 37.539246,
    "places": {},
    "name": "수의학관"
  },
  {
    "category": "공과대학",
    "address": "서울특별시 광진구 능동로 120",
    "longitude": 127.079335,
    "id": "신공학관",
    "number": 22,
    "parentId": "건국대학교",
    "inCampus": true,
    "latitude": 37.54055,
    "places": {},
    "name": "신공학관"
  },
  {
    "category": "체육시설",
    "address": "서울특별시 광진구 능동로 120",
    "longitude": 127.07978,
    "id": "실내체육관",
    "places": {},
    "parentId": "건국대학교",
    "inCampus": true,
    "latitude": 37.544466,
    "name": "실내체육관"
  },
  {
    "category": "",
    "address": "서울특별시 광진구 능동로 120",
    "longitude": 127.074653,
    "id": "언어교육원",
    "number": 6,
    "iconUrl": "area.language.light",
    "inCampus": true,
    "latitude": 37.542532,
    "parentId": "건국대학교",
    "places": {},
    "name": "언어교육원"
  },
  {
    "category": "예술디자인대학",
    "address": "서울특별시 광진구 능동로 120",
    "longitude": 127.072917,
    "id": "예술문화관",
    "number": 5,
    "parentId": "건국대학교",
    "inCampus": true,
    "latitude": 37.542913,
    "places": {},
    "name": "예술문화관"
  },
  {
    "category": "의학전문대학원",
    "address": "서울특별시 광진구 능동로 120",
    "longitude": 127.072308,
    "id": "의생명과학연구관",
    "number": 10,
    "parentId": "건국대학교",
    "inCampus": true,
    "latitude": 37.541411,
    "places": {},
    "name": "의생명과학연구관"
  },
  {
    "category": "인문대학",
    "address": "서울특별시 광진구 능동로 120",
    "longitude": 127.078252,
    "id": "인문학관",
    "number": 19,
    "parentId": "건국대학교",
    "inCampus": true,
    "latitude": 37.543421,
    "places": {},
    "name": "인문학관"
  },
  {
    "category": "랜드마크",
    "address": "서울특별시 광진구 능동로 120",
    "longitude": 127.076451,
    "id": "일감호",
    "places": {
      "랜드마크": [
        "와우도",
        "홍예교",
        "청심대"
      ]
    },
    "parentId": "건국대학교",
    "inCampus": true,
    "latitude": 37.540744,
    "name": "일감호"
  },
  {
    "category": "기숙사",
    "address": "서울특별시 광진구 능동로 120",
    "longitude": 127.079519,
    "id": "일우헌",
    "places": {},
    "parentId": "건국대학교",
    "inCampus": true,
    "latitude": 37.544856,
    "name": "일우헌"
  },
  {
    "category": "",
    "address": "서울특별시 광진구 능동로 120",
    "longitude": 127.073489,
    "id": "입학정보관",
    "number": 13,
    "parentId": "건국대학교",
    "inCampus": true,
    "latitude": 37.540352,
    "places": {},
    "name": "입학정보관"
  },
  {
    "category": "",
    "address": "서울특별시 광진구 능동로 120",
    "longitude": 127.077961,
    "id": "제2학생회관",
    "places": {
      "공연": [
        "노천극장"
      ]
    },
    "parentId": "건국대학교",
    "inCampus": true,
    "latitude": 37.541172,
    "name": "제2 학생회관"
  },
  {
    "category": "공과대학",
    "address": "서울특별시 광진구 능동로 120",
    "longitude": 127.079973,
    "id": "중장비실험동",
    "number": 21,
    "places": {},
    "inCampus": true,
    "latitude": 37.542356,
    "name": "중장비실험동"
  },
  {
    "category": "",
    "address": "서울특별시 광진구 능동로 120",
    "longitude": 127.081686,
    "id": "창의관",
    "number": 24,
    "data": "113 학군단",
    "inCampus": true,
    "latitude": 37.541237,
    "parentId": "건국대학교",
    "places": {},
    "name": "창의관"
  },
  {
    "category": "기숙사",
    "address": "서울특별시 광진구 능동로 120",
    "longitude": 127.078714,
    "id": "쿨하우스글로벌홀",
    "number": 26,
    "parentId": "쿨하우스",
    "inCampus": true,
    "latitude": 37.5391,
    "places": {},
    "name": "쿨하우스 글로벌홀"
  },
  {
    "category": "기숙사",
    "address": "서울특별시 광진구 능동로 120",
    "longitude": 127.079427,
    "id": "쿨하우스드림홀",
    "number": 26,
    "parentId": "쿨하우스",
    "inCampus": true,
    "latitude": 37.5390,
    "places": {},
    "name": "쿨하우스 드림홀"
  },
  {
    "category": "기숙사",
    "address": "서울특별시 광진구 능동로 120",
    "longitude": 127.077196,
    "id": "쿨하우스레이크홀",
    "number": 26,
    "parentId": "쿨하우스",
    "inCampus": true,
    "latitude": 37.539424,
    "places": {},
    "name": "쿨하우스 레이크홀"
  },
  {
    "category": "기숙사",
    "address": "서울특별시 광진구 능동로 120",
    "longitude": 127.078153,
    "id": "쿨하우스비전홀",
    "number": 26,
    "parentId": "쿨하우스",
    "inCampus": true,
    "latitude": 37.539491,
    "places": {},
    "name": "쿨하우스 비전홀"
  },
  {
    "category": "기숙사",
    "address": "서울특별시 광진구 능동로 120",
    "longitude": 127.078978,
    "id": "쿨하우스프론티어홀",
    "number": 26,
    "parentId": "쿨하우스",
    "inCampus": true,
    "latitude": 37.539601,
    "places": {},
    "name": "쿨하우스 프론티어홀"
  },
  {
    "category": "건국대학교",
    "address": "서울특별시 광진구 능동로 120",
    "longitude": 127.077966,
    "id": "학생회관",
    "number": 20,
    "iconUrl": "area.museum.light",
    "inCampus": true,
    "latitude": 37.541875,
    "places": {},
    "name": "학생회관"
  },
  {
    "category": "부동산대학",
    "address": "서울특별시 광진구 능동로 120",
    "longitude": 127.078252,
    "id": "해봉부동산학관",
    "number": 18,
    "parentId": "건국대학교",
    "inCampus": true,
    "latitude": 37.543421,
    "places": {},
    "name": "해봉부동산학관"
  },
  {
    "category": "",
    "address": "서울특별시 광진구 능동로 120",
    "longitude": 127.075144,
    "id": "행정관",
    "number": 1,
    "parentId": "건국대학교",
    "inCampus": true,
    "latitude": 37.543141,
    "places": {},
    "name": "행정관"
  }
]
